{
    "EDDF": {
        "name": "Frankfurt am Main Airport",
        "city": "Frankfurt",
        "country": "Germany",
        "country_code": "DE",
        "lat": 50.033333,
        "lng": 8.570556
    },
    "EGLL": {
        "name": "London Heathrow Airport",
        "city": "London",
        "country": "United Kingdom",
        "country_code": "GB",
        "lat": 51.4706,
        "lng": -0.461941
    },
    "MMMX": {
        "name": "Licenciado Benito Juarez International Airport",
        "city": "Mexico City",
        "country": "Mexico",
        "country_code": "MX",
        "lat": 19.4363,
        "lng": -99.072098
    },
    "VHHH": {
        "name": "Hong Kong International Airport",
        "city": "Hong Kong",
        "country": "Hong Kong",
        "country_code": "HK",
        "lat": 22.308901,
        "lng": 113.915001
    },
    "ZSPD": {
        "name": "Shanghai Pudong International Airport",
        "city": "Shanghai",
        "country": "China",
        "country_code": "CN",
        "lat": 31.143400192260742,
        "lng": 121.80500030517578
    },
    "KLAX": {
        "name": "Los Angeles International Airport",
        "city": "Los Angeles",
        "country": "United States",
        "country_code": "US",
        "lat": 33.94250107,
        "lng": -118.4079971
    },
    "KATL": {
        "name": "Hartsfield Jackson Atlanta International Airport",
        "city": "Atlanta",
        "country": "United States",
        "country_code": "US",
        "lat": 33.6367,
        "lng": -84.428101
    },
    "KJFK": {
        "name": "John F Kennedy International Airport",
        "city": "New York",
        "country": "United States",
        "country_code": "US",
        "lat": 40.63980103,
        "lng": -73.77890015
    }
}